{"type": "FeatureCollection", "features": [{"type": "Feature", "properties": {"title": "Nordea Bank Aabenraa Afdeling", "description": "Nordea Branch", "address": "Storegade 31, 6200 Aabenraa, Denmark"}, "geometry": {"coordinates": [9.4190077, 55.0430813], "type": "Point"}}, {"type": "Feature", "properties": {"title": "Nordea Bank Haderslev", "description": "Nordea Branch", "address": "N\u00f8rregade 30, 6100 Haderslev, Denmark"}, "geometry": {"coordinates": [9.488286, 55.2511716], "type": "Point"}}, {"type": "Feature", "properties": {"title": "Nordea", "description": "Nordea Branch", "address": "Store Torv 16-18, 3700 R\u00f8nne, Denmark"}, "geometry": {"coordinates": [14.698471, 55.1016096], "type": "Point"}}, {"type": "Feature", "properties": {"title": "Nordea Bank", "description": "Nordea Branch", "address": "Store Torv 20, 3700 R\u00f8nne, Denmark"}, "geometry": {"coordinates": [14.698471599999998, 55.1015461], "type": "Point"}}, {"type": "Feature", "properties": {"title": "Nordea Bank Aars Afdeling", "description": "Nordea Branch", "address": "Himmerlandsgade 98, 9600 Aars, Denmark"}, "geometry": {"coordinates": [9.5140696, 56.8033946], "type": "Point"}}, {"type": "Feature", "properties": {"title": "Nordea Bank St\u00f8vring", "description": "Nordea Branch", "address": "Hobrovej 75, 9530 St\u00f8vring, Denmark"}, "geometry": {"coordinates": [9.8374132, 56.8905948], "type": "Point"}}, {"type": "Feature", "properties": {"title": "Nordea Bank Assens", "description": "Nordea Branch", "address": "\u00d8stergade 18, 5610 Assens, Denmark"}, "geometry": {"coordinates": [9.8946828, 55.26969010000001], "type": "Point"}}, {"type": "Feature", "properties": {"title": "Nordea", "description": "Nordea Branch", "address": "Vestre Stationsvej 7, 5000 Odense, Denmark"}, "geometry": {"coordinates": [10.3754164, 55.39797900000001], "type": "Point"}}, {"type": "Feature", "properties": {"title": "Nordea", "description": "Nordea Branch", "address": "Hovedvejen 112, 2600 Glostrup, Denmark"}, "geometry": {"coordinates": [12.3985152, 55.6661353], "type": "Point"}}, {"type": "Feature", "properties": {"title": "Nordea Bank", "description": "Nordea Branch", "address": "M D Madsensvej 7, 3450 Liller\u00f8d, Denmark"}, "geometry": {"coordinates": [12.355492300000002, 55.87046940000001], "type": "Point"}}, {"type": "Feature", "properties": {"title": "Nordea Bank S\u00f8nderborg Afdeling", "description": "Nordea Branch", "address": "Perlegade 9, 6400 S\u00f8nderborg, Denmark"}, "geometry": {"coordinates": [9.7895402, 54.9098169], "type": "Point"}}, {"type": "Feature", "properties": {"title": "Nordea Bank Holstebro Afdeling", "description": "Nordea Branch", "address": "Helgolandsgade 20, 7500 Holstebro, Denmark"}, "geometry": {"coordinates": [8.6148817, 56.35571529999999], "type": "Point"}}, {"type": "Feature", "properties": {"title": "Nordea Bank Herning Afdeling", "description": "Nordea Branch", "address": "\u00d8stergade 4-6, 7400 Herning, Denmark"}, "geometry": {"coordinates": [8.976374, 56.1360554], "type": "Point"}}, {"type": "Feature", "properties": {"title": "Nordea", "description": "Nordea Branch", "address": "Centrumgaden 1, 2750 Ballerup, Denmark"}, "geometry": {"coordinates": [12.361088, 55.731428], "type": "Point"}}, {"type": "Feature", "properties": {"title": "Nordea Pengeautomat", "description": "Nordea Branch", "address": "2740 Skovlunde, Denmark"}, "geometry": {"coordinates": [12.4003126, 55.7210958], "type": "Point"}}, {"type": "Feature", "properties": {"title": "Nordea Bank", "description": "Nordea Branch", "address": "Vestergade 48, 7200 Grindsted, Denmark"}, "geometry": {"coordinates": [8.921078999999997, 55.75923589999999], "type": "Point"}}, {"type": "Feature", "properties": {"title": "Nordea Bank Danmark A/S", "description": "Nordea Branch", "address": "Hovedgaden 23, 3460 Birker\u00f8d, Denmark"}, "geometry": {"coordinates": [12.432588, 55.84205400000001], "type": "Point"}}, {"type": "Feature", "properties": {"title": "Nordea Bank Danmark A/S", "description": "Nordea Branch", "address": "Torvet 1, 4293 Dianalund, Denmark"}, "geometry": {"coordinates": [11.4965327, 55.5270297], "type": "Point"}}, {"type": "Feature", "properties": {"title": "Nordea", "description": "Nordea Branch", "address": "V\u00e6nget 13, 4400 Kalundborg, Denmark"}, "geometry": {"coordinates": [11.08876, 55.6797119], "type": "Point"}}, {"type": "Feature", "properties": {"title": "Nordea Bank H\u00f8ng", "description": "Nordea Branch", "address": "Centervej 31, 4270 H\u00f8ng, Denmark"}, "geometry": {"coordinates": [11.2892485, 55.50419160000001], "type": "Point"}}, {"type": "Feature", "properties": {"title": "Nordea Bank Holb\u00e6k", "description": "Nordea Branch", "address": "Ahlgade 20, 4300 Holb\u00e6k, Denmark"}, "geometry": {"coordinates": [11.7086248, 55.7180075], "type": "Point"}}, {"type": "Feature", "properties": {"title": "Nordea Bank Slagelse Afdeling", "description": "Nordea Branch", "address": "Smedegade 8, 4200 Slagelse, Denmark"}, "geometry": {"coordinates": [11.3573498, 55.4047019], "type": "Point"}}, {"type": "Feature", "properties": {"title": "Nordea Bank Bjerringbro", "description": "Nordea Branch", "address": "Storegade 12, 8850 Bjerringbro, Denmark"}, "geometry": {"coordinates": [9.6564073, 56.37457269999999], "type": "Point"}}, {"type": "Feature", "properties": {"title": "Nordea Bank Oksb\u00f8l", "description": "Nordea Branch", "address": "\u00d8stergade 1, 6840 Oksb\u00f8l, Denmark"}, "geometry": {"coordinates": [8.280515, 55.625786], "type": "Point"}}, {"type": "Feature", "properties": {"title": "Nordea Bank Tarm", "description": "Nordea Branch", "address": "Storegade 27, 6880 Tarm, Denmark"}, "geometry": {"coordinates": [8.5210251, 55.9071284], "type": "Point"}}, {"type": "Feature", "properties": {"title": "Nordea", "description": "Nordea Branch", "address": "Kongensgade 44-48, 6700 Esbjerg, Denmark"}, "geometry": {"coordinates": [8.451068699999999, 55.4660225], "type": "Point"}}, {"type": "Feature", "properties": {"title": "Nordea Bank Danmark", "description": "Nordea Branch", "address": "Storegade 30, 7330 Brande, Denmark"}, "geometry": {"coordinates": [9.1269071, 55.94340889999999], "type": "Point"}}, {"type": "Feature", "properties": {"title": "Nordea Bank Danmark A/S", "description": "Nordea Branch", "address": "Str\u00f8get 12-14, 7430 Ikast, Denmark"}, "geometry": {"coordinates": [9.1552753, 56.14041750000001], "type": "Point"}}, {"type": "Feature", "properties": {"title": "Nordea Faaborg afd.", "description": "Nordea Branch", "address": "\u00d8stergade 16, 5600 Faaborg, Denmark"}, "geometry": {"coordinates": [10.244402699999998, 55.0947898], "type": "Point"}}, {"type": "Feature", "properties": {"title": "Nordea Bank Ringe", "description": "Nordea Branch", "address": "Algade 48, 5750 Ringe, Denmark"}, "geometry": {"coordinates": [10.478959800000002, 55.23749760000001], "type": "Point"}}, {"type": "Feature", "properties": {"title": "Nordea Bank Aabybro", "description": "Nordea Branch", "address": "Torvet 3, 9440 Aabybro, Denmark"}, "geometry": {"coordinates": [9.731513699999999, 57.1610318], "type": "Point"}}, {"type": "Feature", "properties": {"title": "Nordea Bank Aalborg", "description": "Nordea Branch", "address": "Prinsensgade 15, 9000 Aalborg, Denmark"}, "geometry": {"coordinates": [9.9157163, 57.044887], "type": "Point"}}, {"type": "Feature", "properties": {"title": "Nordea", "description": "Nordea Branch", "address": "Hvidovrevej 59, 2650 Hvidovre, Denmark"}, "geometry": {"coordinates": [12.4742396, 55.6632194], "type": "Point"}}, {"type": "Feature", "properties": {"title": "Nordea Bank Vanl\u00f8se Afdeling", "description": "Nordea Branch", "address": "Jernbane All\u00e9 47, 2720 K\u00f8benhavn, Denmark"}, "geometry": {"coordinates": [12.4892163, 55.6883376], "type": "Point"}}, {"type": "Feature", "properties": {"title": "Nordea", "description": "Nordea Branch", "address": "Bredgade 7-11, 9700 Br\u00f8nderslev, Denmark"}, "geometry": {"coordinates": [9.946093, 57.269765], "type": "Point"}}, {"type": "Feature", "properties": {"title": "Nordea Bank Vejen Afdeling", "description": "Nordea Branch", "address": "R\u00e5dhuspassagen 2, 6600 Vejen, Denmark"}, "geometry": {"coordinates": [9.1379894, 55.4768376], "type": "Point"}}, {"type": "Feature", "properties": {"title": "Nordea", "description": "Nordea Branch", "address": "\u00d8stergade 1, 6630 R\u00f8dding, Denmark"}, "geometry": {"coordinates": [9.059431, 55.36826800000001], "type": "Point"}}, {"type": "Feature", "properties": {"title": "Nordea Bank Vejle Afdeling", "description": "Nordea Branch", "address": "D\u00e6mningen 68, 7100 Vejle, Denmark"}, "geometry": {"coordinates": [9.536433, 55.71050989999999], "type": "Point"}}, {"type": "Feature", "properties": {"title": "Nordea Bank Danmark A/S", "description": "Nordea Branch", "address": "Gothersgade 5, 7000 Fredericia, Denmark"}, "geometry": {"coordinates": [9.7568305, 55.5666927], "type": "Point"}}, {"type": "Feature", "properties": {"title": "Nordea Bank Middelfart", "description": "Nordea Branch", "address": "Algade 83, 5500 Middelfart, Denmark"}, "geometry": {"coordinates": [9.7351284, 55.504796000000006], "type": "Point"}}, {"type": "Feature", "properties": {"title": "Nordea", "description": "Nordea Branch", "address": "Kolding \u00c5park 2, 6000 Kolding, Denmark"}, "geometry": {"coordinates": [9.4846691, 55.48692809999999], "type": "Point"}}, {"type": "Feature", "properties": {"title": "Nordea Bank Christiansfeld", "description": "Nordea Branch", "address": "Kongensgade 4, 6070 Christiansfeld, Denmark"}, "geometry": {"coordinates": [9.483708600000002, 55.3541635], "type": "Point"}}, {"type": "Feature", "properties": {"title": "Nordea", "description": "Nordea Branch", "address": "Storgade 22, 4180 Sor\u00f8, Denmark"}, "geometry": {"coordinates": [11.556630300000002, 55.4324934], "type": "Point"}}, {"type": "Feature", "properties": {"title": "Nordea Bank Viby Sj\u00e6lland", "description": "Nordea Branch", "address": "S\u00f8ndergade 8, 4130 Viby Sj\u00e6lland, Denmark"}, "geometry": {"coordinates": [12.0241478, 55.5486505], "type": "Point"}}, {"type": "Feature", "properties": {"title": "Nordea", "description": "Nordea Branch", "address": "Amagerbrogade 245, 2300 K\u00f8benhavn, Denmark"}, "geometry": {"coordinates": [12.614736, 55.646007], "type": "Point"}}, {"type": "Feature", "properties": {"title": "Nordea", "description": "Nordea Branch", "address": "Amagerbrogade 26, 2300 K\u00f8benhavn, Denmark"}, "geometry": {"coordinates": [12.5988564, 55.6657671], "type": "Point"}}, {"type": "Feature", "properties": {"title": "Nordea", "description": "Nordea Branch", "address": "Torvet 4, 8500 Gren\u00e5, Denmark"}, "geometry": {"coordinates": [10.8753815, 56.41332760000001], "type": "Point"}}, {"type": "Feature", "properties": {"title": "Nordea Bank A/S Svendborg Afdeling", "description": "Nordea Branch", "address": "Centrumpladsen 8, 5700 Svendborg, Denmark"}, "geometry": {"coordinates": [10.607227900000002, 55.0594978], "type": "Point"}}, {"type": "Feature", "properties": {"title": "Nordea Bank Rudk\u00f8bing", "description": "Nordea Branch", "address": "\u00d8rstedsgade 6, 5900 Rudk\u00f8bing, Denmark"}, "geometry": {"coordinates": [10.7143793, 54.93609619999999], "type": "Point"}}, {"type": "Feature", "properties": {"title": "Nordea Geldautomat", "description": "Nordea Branch", "address": "\u00c6r\u00f8sk\u00f8bing Havn 2, 5970 \u00c6r\u00f8sk\u00f8bing, Denmark"}, "geometry": {"coordinates": [10.4121939, 54.8911001], "type": "Point"}}, {"type": "Feature", "properties": {"title": "Nordea Bank Danmark A/S", "description": "Nordea Branch", "address": "Banebroen 2, 5592 Ejby, Denmark"}, "geometry": {"coordinates": [9.9273209, 55.429224], "type": "Point"}}, {"type": "Feature", "properties": {"title": "Nordea Bank Danmark A/S", "description": "Nordea Branch", "address": "Farum Hovedgade 14, 3520 Farum, Denmark"}, "geometry": {"coordinates": [12.37214, 55.81274500000001], "type": "Point"}}, {"type": "Feature", "properties": {"title": "Nordea", "description": "Nordea Branch", "address": "Axeltorv 2, 4700 N\u00e6stved, Denmark"}, "geometry": {"coordinates": [11.7588941, 55.230601], "type": "Point"}}, {"type": "Feature", "properties": {"title": "Nordea", "description": "Nordea Branch", "address": "4700 N\u00e6stved, Denmark"}, "geometry": {"coordinates": [11.7809185, 55.2534897], "type": "Point"}}, {"type": "Feature", "properties": {"title": "Nordea Bank Hiller\u00f8d", "description": "Nordea Branch", "address": "Slotsgade 44, 3400 Hiller\u00f8d, Denmark"}, "geometry": {"coordinates": [12.2993684, 55.93195559999999], "type": "Point"}}, {"type": "Feature", "properties": {"title": "Nordea Bank Frederikssund", "description": "Nordea Branch", "address": "Jernbanegade 11, 3600 Frederikssund, Denmark"}, "geometry": {"coordinates": [12.0632093, 55.8389512], "type": "Point"}}, {"type": "Feature", "properties": {"title": "Nordea Bank J\u00e6gerspris", "description": "Nordea Branch", "address": "Hovedgaden 39, 3630 J\u00e6gerspris, Denmark"}, "geometry": {"coordinates": [11.984327699999998, 55.85537429999999], "type": "Point"}}, {"type": "Feature", "properties": {"title": "Nordea", "description": "Nordea Branch", "address": "Torvet 37, 3300 Frederiksv\u00e6rk, Denmark"}, "geometry": {"coordinates": [12.0191909, 55.9718335], "type": "Point"}}, {"type": "Feature", "properties": {"title": "Nordea Bank Sk\u00e6lsk\u00f8r", "description": "Nordea Branch", "address": "Nytorv 10, 4230 Sk\u00e6lsk\u00f8r, Denmark"}, "geometry": {"coordinates": [11.2976556, 55.2547004], "type": "Point"}}, {"type": "Feature", "properties": {"title": "Nordea Bank Ringsted afdeling", "description": "Nordea Branch", "address": "Torvet 10, 4100 Ringsted, Denmark"}, "geometry": {"coordinates": [11.789439, 55.44550400000001], "type": "Point"}}, {"type": "Feature", "properties": {"title": "Nordea Bank Danmark A/S", "description": "Nordea Branch", "address": "Torvet 1, 8464 Galten, Denmark"}, "geometry": {"coordinates": [9.903915199999998, 56.1550744], "type": "Point"}}, {"type": "Feature", "properties": {"title": "Nordea Bank Horsens Afdeling", "description": "Nordea Branch", "address": "R\u00e5dhustorvet 13, 8700 Horsens, Denmark"}, "geometry": {"coordinates": [9.849623, 55.860869], "type": "Point"}}, {"type": "Feature", "properties": {"title": "nordea", "description": "Nordea Branch", "address": "Sundvej 30, 8700 Horsens, Denmark"}, "geometry": {"coordinates": [9.8725966, 55.86379270000001], "type": "Point"}}, {"type": "Feature", "properties": {"title": "Nordea Bank Skanderborg Afdeling", "description": "Nordea Branch", "address": "Dagmar Centret 1, 8660 Skanderborg, Denmark"}, "geometry": {"coordinates": [9.9316953, 56.0339446], "type": "Point"}}, {"type": "Feature", "properties": {"title": "Nordea Bank Danmark A/S", "description": "Nordea Branch", "address": "J\u00e6gersborg Alle 22, 2920 Charlottenlund, Denmark"}, "geometry": {"coordinates": [12.5697907, 55.7542194], "type": "Point"}}, {"type": "Feature", "properties": {"title": "Nordea Bank Hellerup", "description": "Nordea Branch", "address": "Strandvejen 159, 2900 Hellerup, Denmark"}, "geometry": {"coordinates": [12.57566, 55.7316592], "type": "Point"}}, {"type": "Feature", "properties": {"title": "Nordea", "description": "Nordea Branch", "address": "S\u00f8borg Hovedgade 112, 2860 S\u00f8borg, Denmark"}, "geometry": {"coordinates": [12.510878, 55.7365529], "type": "Point"}}, {"type": "Feature", "properties": {"title": "Nordea Bank Kongens Lyngby", "description": "Nordea Branch", "address": "Lyngby Hovedgade 98, 2800 Kongens Lyngby, Denmark"}, "geometry": {"coordinates": [12.5083201, 55.76568779999999], "type": "Point"}}, {"type": "Feature", "properties": {"title": "Nordea atm", "description": "Nordea Branch", "address": "\u00d8sterbrogade 137, 2100 K\u00f8benhavn, Denmark"}, "geometry": {"coordinates": [12.5773126, 55.71268829999999], "type": "Point"}}, {"type": "Feature", "properties": {"title": "Nordea", "description": "Nordea Branch", "address": "\u00d8sterbrogade 78, 2100 K\u00f8benhavn, Denmark"}, "geometry": {"coordinates": [12.5777081, 55.6998417], "type": "Point"}}, {"type": "Feature", "properties": {"title": "Nordea Bank Silkeborg Afdeling", "description": "Nordea Branch", "address": "Vestergade 13, 8600 Silkeborg, Denmark"}, "geometry": {"coordinates": [9.5477483, 56.16876120000001], "type": "Point"}}, {"type": "Feature", "properties": {"title": "Nordea", "description": "Nordea Branch", "address": "\u00d8stergade 21, 8370 Hadsten, Denmark"}, "geometry": {"coordinates": [10.0488635, 56.3274073], "type": "Point"}}, {"type": "Feature", "properties": {"title": "Nordea Bank Hinnerup", "description": "Nordea Branch", "address": "Storegade 13, 8382 Hinnerup, Denmark"}, "geometry": {"coordinates": [10.0625875, 56.2649779], "type": "Point"}}, {"type": "Feature", "properties": {"title": "Nordea Bank Randers C", "description": "Nordea Branch", "address": "Kirkegade 3, 8900 Randers, Denmark"}, "geometry": {"coordinates": [10.0356073, 56.45933460000001], "type": "Point"}}, {"type": "Feature", "properties": {"title": "Nordea", "description": "Nordea Branch", "address": "Seminarievej 8, 6760 Ribe, Denmark"}, "geometry": {"coordinates": [8.769389, 55.33106020000001], "type": "Point"}}, {"type": "Feature", "properties": {"title": "Nordea", "description": "Nordea Branch", "address": "Centerholmen 16, 2670 Greve, Denmark"}, "geometry": {"coordinates": [12.292756, 55.581794], "type": "Point"}}, {"type": "Feature", "properties": {"title": "Nordea Bank (Varde Afdeling)", "description": "Nordea Branch", "address": "Kr\u00e6mmergade 2 A, 6800 Varde, Denmark"}, "geometry": {"coordinates": [8.481014499999999, 55.6200012], "type": "Point"}}, {"type": "Feature", "properties": {"title": "Nordea", "description": "Nordea Branch", "address": "Stengade 45, 3000 Helsing\u00f8r, Denmark"}, "geometry": {"coordinates": [12.6115592, 56.0341944], "type": "Point"}}, {"type": "Feature", "properties": {"title": "Nordea Bank Videb\u00e6k Afdeling", "description": "Nordea Branch", "address": "Bredgade 23, 6920 Videb\u00e6k, Denmark"}, "geometry": {"coordinates": [8.6321056, 56.0911686], "type": "Point"}}, {"type": "Feature", "properties": {"title": "Nordea Bank Kib\u00e6k Afdeling", "description": "Nordea Branch", "address": "Nr Bredgade 17, 6933 Kib\u00e6k, Denmark"}, "geometry": {"coordinates": [8.853907999999997, 56.0313186], "type": "Point"}}, {"type": "Feature", "properties": {"title": "Nordea Bank Hj\u00f8rring", "description": "Nordea Branch", "address": "\u00d8stergade 10, 9800 Hj\u00f8rring, Denmark"}, "geometry": {"coordinates": [9.9887168, 57.4593315], "type": "Point"}}, {"type": "Feature", "properties": {"title": "Nordea Bank Maribo Afdeling", "description": "Nordea Branch", "address": "A, Brovejen 32, 4930 Maribo, Denmark"}, "geometry": {"coordinates": [11.4875146, 54.7764556], "type": "Point"}}, {"type": "Feature", "properties": {"title": "Nordea Bank Struer", "description": "Nordea Branch", "address": "Ved Fjorden 2, 7600 Struer, Denmark"}, "geometry": {"coordinates": [8.5953903, 56.49313829999999], "type": "Point"}}, {"type": "Feature", "properties": {"title": "Nordea Bank Skive Afdeling", "description": "Nordea Branch", "address": "S\u00f8ndergade 6, 7800 Skive, Denmark"}, "geometry": {"coordinates": [9.025797599999999, 56.5643424], "type": "Point"}}, {"type": "Feature", "properties": {"title": "Nordea Bank Odder", "description": "Nordea Branch", "address": "Baneg\u00e5rdsgade 2, 8300 Odder, Denmark"}, "geometry": {"coordinates": [10.14946, 55.9723912], "type": "Point"}}, {"type": "Feature", "properties": {"title": "Nordea Bank Danmark A/S", "description": "Nordea Branch", "address": "Hovedgaden 22, 4330 Hvals\u00f8, Denmark"}, "geometry": {"coordinates": [11.862569, 55.59316800000001], "type": "Point"}}, {"type": "Feature", "properties": {"title": "Nordea Bank Skjern Afdeling", "description": "Nordea Branch", "address": "Bredgade 36, 6900 Skjern, Denmark"}, "geometry": {"coordinates": [8.4946366, 55.9463742], "type": "Point"}}, {"type": "Feature", "properties": {"title": "Nordea Bank \u00c5byh\u00f8j", "description": "Nordea Branch", "address": "Silkeborgvej 261, 263, 8230 Aarhus, Denmark"}, "geometry": {"coordinates": [10.1659475, 56.1550448], "type": "Point"}}, {"type": "Feature", "properties": {"title": "Nordea", "description": "Nordea Branch", "address": "Taastrup Hovedgade 101, 2630 Taastrup, Denmark"}, "geometry": {"coordinates": [12.3007825, 55.6486382], "type": "Point"}}, {"type": "Feature", "properties": {"title": "Nordea", "description": "Nordea Branch", "address": "Valby Langgade 44, 2500 K\u00f8benhavn, Denmark"}, "geometry": {"coordinates": [12.5170966, 55.6667029], "type": "Point"}}, {"type": "Feature", "properties": {"title": "Nordea", "description": "Nordea Branch", "address": "Helgesh\u00f8j Alle 21, 2630 Taastrup, Denmark"}, "geometry": {"coordinates": [12.281119699999998, 55.65840410000001], "type": "Point"}}, {"type": "Feature", "properties": {"title": "Nordea Bank Danmark A/S", "description": "Nordea Branch", "address": "Hovedgaden 20, 2970 H\u00f8rsholm, Denmark"}, "geometry": {"coordinates": [12.4983843, 55.88005740000001], "type": "Point"}}, {"type": "Feature", "properties": {"title": "Nordea Finance Denmark A / S", "description": "Nordea Branch", "address": "Helgesh\u00f8j Alle 33, 2630 Taastrup, Denmark"}, "geometry": {"coordinates": [12.281167300000002, 55.65767409999999], "type": "Point"}}, {"type": "Feature", "properties": {"title": "Nordea", "description": "Nordea Branch", "address": "Holte Stationsvej 20, 2840 Holte, Denmark"}, "geometry": {"coordinates": [12.4699104, 55.810211], "type": "Point"}}, {"type": "Feature", "properties": {"title": "Nordea", "description": "Nordea Branch", "address": "Sankt Mathias Gade 68, 8800 Viborg, Denmark"}, "geometry": {"coordinates": [9.4088808, 56.4496416], "type": "Point"}}, {"type": "Feature", "properties": {"title": "Nordea Bank Danmark A/S", "description": "Nordea Branch", "address": "Vestervangsvej 14, 8800 Viborg, Denmark"}, "geometry": {"coordinates": [9.3955978, 56.4613122], "type": "Point"}}, {"type": "Feature", "properties": {"title": "Nordea Bank Nyborg", "description": "Nordea Branch", "address": "Baggersgade 1-5, 5800 Nyborg, Denmark"}, "geometry": {"coordinates": [10.792808099999998, 55.3120267], "type": "Point"}}, {"type": "Feature", "properties": {"title": "Nordea Bank", "description": "Nordea Branch", "address": "Torvet 14, 4600 K\u00f8ge, Denmark"}, "geometry": {"coordinates": [12.1816043, 55.4569392], "type": "Point"}}, {"type": "Feature", "properties": {"title": "Nordea", "description": "Nordea Branch", "address": "N\u00f8rregade 54B, 4600 K\u00f8ge, Denmark"}, "geometry": {"coordinates": [12.1852098, 55.4602707], "type": "Point"}}, {"type": "Feature", "properties": {"title": "Nordea Bank Vordingborg afdeling", "description": "Nordea Branch", "address": "Prins J\u00f8rgens Alle 6, 4760 Vordingborg, Denmark"}, "geometry": {"coordinates": [11.9137555, 55.01096399999999], "type": "Point"}}, {"type": "Feature", "properties": {"title": "Nordea Bank Nyk\u00f8bing F. Afdeling", "description": "Nordea Branch", "address": "Slotsgade 1, 4800 Nyk\u00f8bing Falster, Denmark"}, "geometry": {"coordinates": [11.8666985, 54.767923], "type": "Point"}}, {"type": "Feature", "properties": {"title": "Nordea Bank Langeskov Afdeling", "description": "Nordea Branch", "address": "Langeskov Centret 18, 5550 Langeskov, Denmark"}, "geometry": {"coordinates": [10.588943, 55.360149], "type": "Point"}}, {"type": "Feature", "properties": {"title": "Nordea Bank Roskilde", "description": "Nordea Branch", "address": "Algade 16, 4000 Roskilde, Denmark"}, "geometry": {"coordinates": [12.0842077, 55.6409515], "type": "Point"}}, {"type": "Feature", "properties": {"title": "Nordea Bank Danmark A/S", "description": "Nordea Branch", "address": "Vestergade 16, 7620 Lemvig, Denmark"}, "geometry": {"coordinates": [8.306674899999999, 56.549972], "type": "Point"}}, {"type": "Feature", "properties": {"title": "Nordea Bank N\u00f8rrebro Afdeling", "description": "Nordea Branch", "address": "N\u00f8rrebrogade 180, 2200 K\u00f8benhavn, Denmark"}, "geometry": {"coordinates": [12.5451808, 55.6969037], "type": "Point"}}, {"type": "Feature", "properties": {"title": "Nordea Marstal Afd", "description": "Nordea Branch", "address": "Kongensgade 28, 5960 Marstal, Denmark"}, "geometry": {"coordinates": [10.5177825, 54.8554138], "type": "Point"}}, {"type": "Feature", "properties": {"title": "Nordea Bank Danmark A/S", "description": "Nordea Branch", "address": "Toldbodgade 4A, 7700 Thisted, Denmark"}, "geometry": {"coordinates": [8.691781899999999, 56.9537235], "type": "Point"}}, {"type": "Feature", "properties": {"title": "Nordea Bank Kerteminde Afdeling", "description": "Nordea Branch", "address": "Langegade 33, 5300 Kerteminde, Denmark"}, "geometry": {"coordinates": [10.6577557, 55.45039920000001], "type": "Point"}}, {"type": "Feature", "properties": {"title": "Nordea Nr. Aaby afd.", "description": "Nordea Branch", "address": "\u00d8stergade 18, 5580 N\u00f8rre Aaby, Denmark"}, "geometry": {"coordinates": [9.876159, 55.45946199999999], "type": "Point"}}, {"type": "Feature", "properties": {"title": "Nordea Bank Risskov", "description": "Nordea Branch", "address": "Holmensvej 2, 8240 Risskov, Denmark"}, "geometry": {"coordinates": [10.218358, 56.195997], "type": "Point"}}, {"type": "Feature", "properties": {"title": "Nordea", "description": "Nordea Branch", "address": "Sankt Clemens Torv 2-6, 8000 Aarhus, Denmark"}, "geometry": {"coordinates": [10.2087078, 56.1565473], "type": "Point"}}, {"type": "Feature", "properties": {"title": "Nordea Otterup afd.", "description": "Nordea Branch", "address": "S\u00f8ndergade 23, 5450 Otterup, Denmark"}, "geometry": {"coordinates": [10.398653, 55.51305499999999], "type": "Point"}}, {"type": "Feature", "properties": {"title": "Nordea Bank Frederiksberg", "description": "Nordea Branch", "address": "Smallegade 2, 2000 Frederiksberg, Denmark"}, "geometry": {"coordinates": [12.5328515, 55.678628], "type": "Point"}}, {"type": "Feature", "properties": {"title": "Nordea", "description": "Nordea Branch", "address": "Frederiksborggade 14-16, 1360 K\u00f8benhavn, Denmark"}, "geometry": {"coordinates": [12.572613, 55.6834243], "type": "Point"}}, {"type": "Feature", "properties": {"title": "Nordea", "description": "Nordea Branch", "address": "Vesterbrogade 8, 1620 K\u00f8benhavn, Denmark"}, "geometry": {"coordinates": [12.561412, 55.67387799999999], "type": "Point"}}, {"type": "Feature", "properties": {"title": "Nordea Bank Danmark A/S", "description": "Nordea Branch", "address": "Havnepladsen 7, 1. sal, 6950 Ringk\u00f8bing, Denmark"}, "geometry": {"coordinates": [8.241282, 56.088332], "type": "Point"}}, {"type": "Feature", "properties": {"title": "Nordea Bank Saksk\u00f8bing Afdeling", "description": "Nordea Branch", "address": "S\u00f8ndergade 22, 4990 Saksk\u00f8bing, Denmark"}, "geometry": {"coordinates": [11.635664300000002, 54.79904399999999], "type": "Point"}}, {"type": "Feature", "properties": {"title": "Nordea Bank Beder", "description": "Nordea Branch", "address": "Kirkebakken 4, 8330 Beder, Denmark"}, "geometry": {"coordinates": [10.2057393, 56.05875289999999], "type": "Point"}}, {"type": "Feature", "properties": {"title": "Nordea Bank Viby Afdeling", "description": "Nordea Branch", "address": "Skanderborgvej 190, 8260 Viby, Denmark"}, "geometry": {"coordinates": [10.1615754, 56.1284608], "type": "Point"}}, {"type": "Feature", "properties": {"title": "Nordea Bank Danmark", "description": "Nordea Branch", "address": "Bj\u00f8rnholms Alle 20, 8260 Viby, Denmark"}, "geometry": {"coordinates": [10.171736, 56.13890129999999], "type": "Point"}}, {"type": "Feature", "properties": {"title": "Nordea", "description": "Nordea Branch", "address": "Egedal Centret 21, 3660 Stenl\u00f8se, Denmark"}, "geometry": {"coordinates": [12.1941094, 55.7680523], "type": "Point"}}, {"type": "Feature", "properties": {"title": "Nordea Taastrup", "description": "Nordea Branch", "address": "Helgesh\u00f8j Alle 33, 2630 Taastrup, Denmark"}, "geometry": {"coordinates": [12.2803281, 55.6574481], "type": "Point"}}, {"type": "Feature", "properties": {"title": "Nordea Bank Tranek\u00e6r Lohals", "description": "Nordea Branch", "address": "S\u00f8ndergade 28, 5953 Tranek\u00e6r, Denmark"}, "geometry": {"coordinates": [10.9047992, 55.1333168], "type": "Point"}}]}